{
"type": "FeatureCollection",
"name": "1966_Citys_Gates",
"features": [
{ "type": "Feature", "properties": { "id": null, "Name": null }, "geometry": null },
{ "type": "Feature", "properties": { "id": 1, "Name": "باب الطوب" }, "geometry": { "type": "Point", "coordinates": [ 43.1365058, 36.3431545 ] } },
{ "type": "Feature", "properties": { "id": 2, "Name": "باب لكش" }, "geometry": { "type": "Point", "coordinates": [ 43.1329746, 36.3384095 ] } },
{ "type": "Feature", "properties": { "id": 3, "Name": "باب جديد" }, "geometry": { "type": "Point", "coordinates": [ 43.1300489, 36.3339381 ] } },
{ "type": "Feature", "properties": { "id": 4, "Name": "باب البيض" }, "geometry": { "type": "Point", "coordinates": [ 43.1247072, 36.335625 ] } },
{ "type": "Feature", "properties": { "id": 5, "Name": "باب سنجار" }, "geometry": { "type": "Point", "coordinates": [ 43.1164255, 36.3434467 ] } },
{ "type": "Feature", "properties": { "id": 6, "Name": "باب العمادي" }, "geometry": { "type": "Point", "coordinates": [ 43.1201839, 36.354299 ] } },
{ "type": "Feature", "properties": { "id": 7, "Name": "باب الجسر" }, "geometry": { "type": "Point", "coordinates": [ 43.1376422, 36.3445765 ] } },
{ "type": "Feature", "properties": { "id": 8, "Name": "باب السراي" }, "geometry": { "type": "Point", "coordinates": [ 43.1355914, 36.3416269 ] } }
]
}
